{"html_attributions": [], "next_page_token": "AXCi2Q4h2Okvlq6JS5_OXc2DQZUfq_WjXJTQo5EMN7nJhxow0lc71mGi-hUGWCbj7Jmg59FVp9BXAL8zYm1fRXmiQ7FO8vJkFyI-jYX34-Y1rkpndhHAt6PW18dY7t_mCucdLDMZpRNGrd3aIVz8s8_7XkoAEFExJKxXwUPLzeMdlEvdPPO9fqrJO12W5dRreEc6pDrKuQS2l_x_X9Zf1voT4iU5Oif_eFoazHNDtCEwoR56WN7UrP_xzwQ7XcgxtgJxmOduYUXc09eBaoikd-mTe0zh7LFsH-0DMP8dYsZpIJx83zKdMmRqkRz8TL7yokYslsmmuOtBFNVBJoDTGzD25jWTr2F5RlHkJlQxrJNBVaJybKN4qbDhQ8gtrTjkLaNatgmpy3fuofTbK8LyFKsr2ZD4GPCWqfawcLz7HYa0YLbHbpZFcTTYS61N", "results": [{"business_status": "OPERATIONAL", "formatted_address": "Plac Solny 11, 50-061 Wroc\u0142aw, Poland", "geometry": {"location": {"lat": 51.1092167, "lng": 17.0285021}, "viewport": {"northeast": {"lat": 51.11059262989271, "lng": 17.03002077989272}, "southwest": {"lat": 51.10789297010727, "lng": 17.02732112010728}}}, "icon": "https://maps.gstatic.com/mapfiles/place_api/icons/v1/png_71/restaurant-71.png", "icon_background_color": "#FF9E67", "icon_mask_base_uri": "https://maps.gstatic.com/mapfiles/place_api/icons/v2/restaurant_pinlet", "name": "Konspira", "opening_hours": {"open_now": true}, "photos": [{"height": 4032, "html_attributions": ["<a href=\"https://maps.google.com/maps/contrib/117654716253236369209\">Amir Sorousheh</a>"], "photo_reference": "AXCi2Q6gHZAZl_n2Yy2kRwCWhFiWLG7nXN4rGHgZetVehJ3kreYYpdALBATMznIl8Q6GH-9BBbxylpJQ4ea9gaE7bvY35LzY5tZWRH-4ymIRv-HbSf7kDpvhyRkKj5-AlxvO_SugamVfSqrX8bESvI6bQ7EnedtMd-GVAB_QlIo7X4d8toWq", "width": 3024}], "place_id": "ChIJOTTS3HTCD0cRtQDwzrT911o", "plus_code": {"compound_code": "425H+MC Wroc\u0142aw, Poland", "global_code": "9F3V425H+MC"}, "price_level": 2, "rating": 4.6, "reference": "ChIJOTTS3HTCD0cRtQDwzrT911o", "types": ["restaurant", "food", "point_of_interest", "establishment"], "user_ratings_total": 8882}, {"business_status": "OPERATIONAL", "formatted_address": "Rynek 35, 50-102 Wroc\u0142aw, Poland", "geometry": {"location": {"lat": 51.1100028, "lng": 17.0334137}, "viewport": {"northeast": {"lat": 51.11121517989272, "lng": 17.03461432989272}, "southwest": {"lat": 51.10851552010728, "lng": 17.03191467010728}}}, "icon": "https://maps.gstatic.com/mapfiles/place_api/icons/v1/png_71/restaurant-71.png", "icon_background_color": "#FF9E67", "icon_mask_base_uri": "https://maps.gstatic.com/mapfiles/place_api/icons/v2/restaurant_pinlet", "name": "Bernard", "opening_hours": {"open_now": true}, "photos": [{"height": 2268, "html_attributions": ["<a href=\"https://maps.google.com/maps/contrib/104829004154051451597\">Dagmar Matu\u0161\u00edkov\u00e1</a>"], "photo_reference": "AXCi2Q6lAOZN4OzFsFSxfbwWgTaUUyQ3PAGBIPWDlHY5WPEPuKzJceIdAyxTpmwQfj92OJjN_pkib6H219RV2uQBsgf_t9U5auCahF6_bt6cSQbUFZUUMiDrlhiIU7lbYJcAq-O0LK8ml9WeXGcFeBH7WCEH9GC5tZ2m8NGQcdvMU5gOmlak", "width": 4032}], "place_id": "ChIJXaiQxnXCD0cRTYuDkLkw5Rg", "plus_code": {"compound_code": "426M+29 Wroc\u0142aw, Poland", "global_code": "9F3V426M+29"}, "price_level": 2, "rating": 4.6, "reference": "ChIJXaiQxnXCD0cRTYuDkLkw5Rg", "types": ["restaurant", "food", "point_of_interest", "establishment"], "user_ratings_total": 7085}, {"business_status": "OPERATIONAL", "formatted_address": "Odrza\u0144ska 7, 50-113 Wroc\u0142aw, Poland", "geometry": {"location": {"lat": 51.1119289, "lng": 17.0313524}, "viewport": {"northeast": {"lat": 51.11328962989272, "lng": 17.03263122989272}, "southwest": {"lat": 51.11058997010728, "lng": 17.02993157010728}}}, "icon": "https://maps.gstatic.com/mapfiles/place_api/icons/v1/png_71/restaurant-71.png", "icon_background_color": "#FF9E67", "icon_mask_base_uri": "https://maps.gstatic.com/mapfiles/place_api/icons/v2/restaurant_pinlet", "name": "Chatka przy Jatkach", "opening_hours": {"open_now": true}, "photos": [{"height": 3024, "html_attributions": ["<a href=\"https://maps.google.com/maps/contrib/115230326848843178397\">pawelkuczynski</a>"], "photo_reference": "AXCi2Q4CphkYxOCzkMbuFcDOQK0uV3iOQCsxs3P9DlpPA-u5a1Y1dyh0FCj1Wno3zg00iJ1OG0huLpXD2mksozEkllqCG41Zju-9XtQ0VgyQRyzL19AZOVRlPLnBunfeYrlxR9sFb16QBLSPPy1H13Vu6Deto0kDzACbeDpXZORLOxxze1mZ", "width": 4032}], "place_id": "ChIJhX9HfXXCD0cRDfuwd7Uv3Sw", "plus_code": {"compound_code": "426J+QG Wroc\u0142aw, Poland", "global_code": "9F3V426J+QG"}, "price_level": 2, "rating": 4.3, "reference": "ChIJhX9HfXXCD0cRDfuwd7Uv3Sw", "types": ["restaurant", "food", "point_of_interest", "establishment"], "user_ratings_total": 3130}, {"business_status": "OPERATIONAL", "formatted_address": "Rynek Ratusz 2, 50-106 Wroc\u0142aw, Poland", "geometry": {"location": {"lat": 51.1099945, "lng": 17.0311727}, "viewport": {"northeast": {"lat": 51.11118942989272, "lng": 17.03417125}, "southwest": {"lat": 51.10848977010727, "lng": 17.02994745}}}, "icon": "https://maps.gstatic.com/mapfiles/place_api/icons/v1/png_71/restaurant-71.png", "icon_background_color": "#FF9E67", "icon_mask_base_uri": "https://maps.gstatic.com/mapfiles/place_api/icons/v2/restaurant_pinlet", "name": "Spi\u017c - Microbrewery and Restaurant", "opening_hours": {"open_now": true}, "photos": [{"height": 3024, "html_attributions": ["<a href=\"https://maps.google.com/maps/contrib/109483949102694817728\">Julia Spacjer</a>"], "photo_reference": "AXCi2Q76Oeu9CKZUMB_Blc_ZpY7SMj2H9gctst5_huk2J-gkS1udCwk5GIyggOXWpimyfjcaa72rPetbxgZ9rMMq9ax4YUflw_U5gs25heyxNeXWhhbVQbksGF8ljzdvXRAKOEanGDVeuRnvE-4oPvbzwhw1qQwog0VlklLWFvffaKvQepg8", "width": 4032}], "place_id": "ChIJKRd4oHXCD0cRtODBK4khVI4", "plus_code": {"compound_code": "425J+XF Wroc\u0142aw, Poland", "global_code": "9F3V425J+XF"}, "price_level": 2, "rating": 4.4, "reference": "ChIJKRd4oHXCD0cRtODBK4khVI4", "types": ["restaurant", "night_club", "bar", "food", "point_of_interest", "establishment"], "user_ratings_total": 9383}, {"business_status": "OPERATIONAL", "formatted_address": "Odrza\u0144ska 24/29, 50-114 Wroc\u0142aw, Poland", "geometry": {"location": {"lat": 51.1126492, "lng": 17.0312942}, "viewport": {"northeast": {"lat": 51.11398362989272, "lng": 17.03273782989272}, "southwest": {"lat": 51.11128397010728, "lng": 17.03003817010728}}}, "icon": "https://maps.gstatic.com/mapfiles/place_api/icons/v1/png_71/restaurant-71.png", "icon_background_color": "#FF9E67", "icon_mask_base_uri": "https://maps.gstatic.com/mapfiles/place_api/icons/v2/restaurant_pinlet", "name": "Restauracja Kurna Chata", "opening_hours": {"open_now": true}, "photos": [{"height": 3024, "html_attributions": ["<a href=\"https://maps.google.com/maps/contrib/116194716539466209206\">Bartosz</a>"], "photo_reference": "AXCi2Q4k9tImjJzoigQfswtlUZyIg6wCKYRPvvSLrqTuoKJM7z-C2FGyl2eSQMffpyh_gVkQWyaPIvBBu8LT6CIwoF4gblw1KIQYAdTUoCZEusirR5kDKISx0o04e3vqwsJ9oIz0lxCOUwLMW0Atlp07Y9F3Uc_ZVxB_svERb4AswFtuwXcK", "width": 4032}], "place_id": "ChIJMXPVkN_pD0cR8vx5ejFyQL0", "plus_code": {"compound_code": "427J+3G Wroc\u0142aw, Poland", "global_code": "9F3V427J+3G"}, "price_level": 2, "rating": 4, "reference": "ChIJMXPVkN_pD0cR8vx5ejFyQL0", "types": ["restaurant", "food", "point_of_interest", "establishment"], "user_ratings_total": 6675}, {"business_status": "OPERATIONAL", "formatted_address": "Igielna 14/15, 50-117 Wroc\u0142aw, Poland", "geometry": {"location": {"lat": 51.1113755, "lng": 17.0319983}, "viewport": {"northeast": {"lat": 51.11280027989272, "lng": 17.03338102989272}, "southwest": {"lat": 51.11010062010727, "lng": 17.03068137010728}}}, "icon": "https://maps.gstatic.com/mapfiles/place_api/icons/v1/png_71/restaurant-71.png", "icon_background_color": "#FF9E67", "icon_mask_base_uri": "https://maps.gstatic.com/mapfiles/place_api/icons/v2/restaurant_pinlet", "name": "The Cork", "opening_hours": {"open_now": false}, "photos": [{"height": 2268, "html_attributions": ["<a href=\"https://maps.google.com/maps/contrib/101836452192066276080\">\u0141ukasz Ol</a>"], "photo_reference": "AXCi2Q55dLt5ectYl2LasuwRp3ExSaRNMtpkFmhSV2hDgw6oDp2p7jYlR6PeghGRu036yjkeix_lS9jpHBwwC2gNv9fPjyV1o_YN2r9BAxp9g1QhqTwN2jl6ekVq7FdFHyIFD1DbY_BnYAIlRthbXxGeRqVSgZSBvAir4H3lpNqTEal9bILT", "width": 4032}], "place_id": "ChIJ09BrBenDD0cRT90bpafHqxA", "plus_code": {"compound_code": "426J+HQ Wroc\u0142aw, Poland", "global_code": "9F3V426J+HQ"}, "price_level": 2, "rating": 4.8, "reference": "ChIJ09BrBenDD0cRT90bpafHqxA", "types": ["restaurant", "food", "point_of_interest", "establishment"], "user_ratings_total": 1007}, {"business_status": "OPERATIONAL", "formatted_address": "Szwedzka 17A, 54-401 Wroc\u0142aw, Poland", "geometry": {"location": {"lat": 51.1101049, "lng": 16.9615077}, "viewport": {"northeast": {"lat": 51.11147282989272, "lng": 16.96311552989272}, "southwest": {"lat": 51.10877317010728, "lng": 16.96041587010727}}}, "icon": "https://maps.gstatic.com/mapfiles/place_api/icons/v1/png_71/restaurant-71.png", "icon_background_color": "#FF9E67", "icon_mask_base_uri": "https://maps.gstatic.com/mapfiles/place_api/icons/v2/restaurant_pinlet", "name": "ST\u00d3\u0141 na Szwedzkiej - studio kulinarne", "opening_hours": {"open_now": false}, "photos": [{"height": 2592, "html_attributions": ["<a href=\"https://maps.google.com/maps/contrib/100907562247882235482\">\uae40\uc724\uc815</a>"], "photo_reference": "AXCi2Q4YUiIru-H2CC57DQ_nmOx9m753ni9iVEEQHInza98LGzj-qRL3lZpkgJOOF7FXXu7-DzmYyZJ67NeLhkDNYWy8uduIKxJass5_seeKBRy4NTXstFkBaV-sPU0IoCwhLn2ruSmD_9HPEFSzIxw0CwQ2EOXAXA2JNmaZ9aBFGIvtjqQl", "width": 4608}], "place_id": "ChIJEW1R6cLBD0cRS1L86LgpI3Y", "plus_code": {"compound_code": "4X66+2J Wroc\u0142aw, Poland", "global_code": "9F3R4X66+2J"}, "price_level": 2, "rating": 4.8, "reference": "ChIJEW1R6cLBD0cRS1L86LgpI3Y", "types": ["restaurant", "food", "point_of_interest", "establishment"], "user_ratings_total": 1610}, {"business_status": "OPERATIONAL", "formatted_address": "Rynek 23-24, 50-101 Wroc\u0142aw, Poland", "geometry": {"location": {"lat": 51.1091934, "lng": 17.0321521}, "viewport": {"northeast": {"lat": 51.11051992989272, "lng": 17.03302287989273}, "southwest": {"lat": 51.10782027010728, "lng": 17.03032322010728}}}, "icon": "https://maps.gstatic.com/mapfiles/place_api/icons/v1/png_71/restaurant-71.png", "icon_background_color": "#FF9E67", "icon_mask_base_uri": "https://maps.gstatic.com/mapfiles/place_api/icons/v2/restaurant_pinlet", "name": "Whiskey in the Jar", "opening_hours": {"open_now": false}, "photos": [{"height": 2448, "html_attributions": ["<a href=\"https://maps.google.com/maps/contrib/109310508274508172228\">David Bernabe Fernandez</a>"], "photo_reference": "AXCi2Q7Et19Tlaz2ZvQGwimAyK1jiAmkz6QR8H6SqGLQLDbClM8J0pUfqpzp9wyWHf8mCXqeBeNiAHshTZl7BAg85qnb9S5rB5cwZ-Sqznkeil2IxfJDN91fOjmET5Fa8fMtf74WLFqPvq-eHgvR1OD7ulfmTh6neESaRwV9WkUv_lxq-1Cp", "width": 3264}], "place_id": "ChIJB2V_THTCD0cR6m8wLNyC9PE", "plus_code": {"compound_code": "425J+MV Wroc\u0142aw, Poland", "global_code": "9F3V425J+MV"}, "price_level": 3, "rating": 4.5, "reference": "ChIJB2V_THTCD0cR6m8wLNyC9PE", "types": ["bar", "restaurant", "food", "point_of_interest", "establishment"], "user_ratings_total": 11892}, {"business_status": "OPERATIONAL", "formatted_address": "4, Ruska 3/4, 50-512 Wroc\u0142aw, Poland", "geometry": {"location": {"lat": 51.1100985, "lng": 17.0284212}, "viewport": {"northeast": {"lat": 51.11139272989272, "lng": 17.02975287989272}, "southwest": {"lat": 51.10869307010728, "lng": 17.02705322010728}}}, "icon": "https://maps.gstatic.com/mapfiles/place_api/icons/v1/png_71/restaurant-71.png", "icon_background_color": "#FF9E67", "icon_mask_base_uri": "https://maps.gstatic.com/mapfiles/place_api/icons/v2/restaurant_pinlet", "name": "Pod Latarniami", "opening_hours": {"open_now": true}, "photos": [{"height": 3024, "html_attributions": ["<a href=\"https://maps.google.com/maps/contrib/106603136876308024699\">Max Nayman</a>"], "photo_reference": "AXCi2Q7gin83QmoDD3CO068ybVBX0VXhryfRh4RQD6q9YuIjNBux3Xtl0n7ruaSfPSjDXCyJGr4GG-82tK2fUDG2KGZd_C2-58LvLo32qaZcvVqy1X-L4JCziEZf2g7-_YKi9Jx9au8V4tjy7CE01spMvZDKjuaJpfQ1Nz_z0avSuEfQDudJ", "width": 4032}], "place_id": "ChIJG-FiJnXCD0cRi_P2lyeAK00", "plus_code": {"compound_code": "426H+29 Wroc\u0142aw, Poland", "global_code": "9F3V426H+29"}, "price_level": 2, "rating": 4.4, "reference": "ChIJG-FiJnXCD0cRi_P2lyeAK00", "types": ["restaurant", "night_club", "bar", "food", "point_of_interest", "establishment"], "user_ratings_total": 2989}, {"business_status": "OPERATIONAL", "formatted_address": "Kazimierza Wielkiego 50, 50-077 Wroc\u0142aw, Poland", "geometry": {"location": {"lat": 51.10774259999999, "lng": 17.031324}, "viewport": {"northeast": {"lat": 51.10914527989272, "lng": 17.03266102989272}, "southwest": {"lat": 51.10644562010728, "lng": 17.02996137010728}}}, "icon": "https://maps.gstatic.com/mapfiles/place_api/icons/v1/png_71/restaurant-71.png", "icon_background_color": "#FF9E67", "icon_mask_base_uri": "https://maps.gstatic.com/mapfiles/place_api/icons/v2/restaurant_pinlet", "name": "SETKA - Restauracja Polska - Restaurant Wroc\u0142aw", "opening_hours": {"open_now": true}, "photos": [{"height": 3024, "html_attributions": ["<a href=\"https://maps.google.com/maps/contrib/108336910223853836071\">\u674e\u6c34\u91d1</a>"], "photo_reference": "AXCi2Q68MPz9KdI3bRuYibjp6Azc9J1Hqa3DeplkyRdLkqcVtDDWiStrbAYnAQYHZ_WpEh2a-ez8VhbDsXpUhe4kABQrOshvffCKR7zcmdh6F29idCtd9Rs9f_ISMNKV32ixfSIa3SBUfEO3d1wV5TJEw3FwGP7xgxbnofctgXo76nvrYU7m", "width": 4032}], "place_id": "ChIJq_EUbXTCD0cRf0hZksUN3d0", "plus_code": {"compound_code": "425J+3G Wroc\u0142aw, Poland", "global_code": "9F3V425J+3G"}, "price_level": 1, "rating": 4.5, "reference": "ChIJq_EUbXTCD0cRf0hZksUN3d0", "types": ["meal_takeaway", "night_club", "bar", "restaurant", "food", "point_of_interest", "establishment"], "user_ratings_total": 9202}, {"business_status": "OPERATIONAL", "formatted_address": "\u015awi\u0119tego Antoniego 15, 50-073 Wroc\u0142aw, Poland", "geometry": {"location": {"lat": 51.1093675, "lng": 17.0249976}, "viewport": {"northeast": {"lat": 51.11068572989272, "lng": 17.02632467989272}, "southwest": {"lat": 51.10798607010727, "lng": 17.02362502010728}}}, "icon": "https://maps.gstatic.com/mapfiles/place_api/icons/v1/png_71/restaurant-71.png", "icon_background_color": "#FF9E67", "icon_mask_base_uri": "https://maps.gstatic.com/mapfiles/place_api/icons/v2/restaurant_pinlet", "name": "Szynkarnia", "opening_hours": {"open_now": false}, "photos": [{"height": 3411, "html_attributions": ["<a href=\"https://maps.google.com/maps/contrib/114699755364897991075\">Szynkarnia</a>"], "photo_reference": "AXCi2Q52lZZbtAsNgX86RayqaxGHhmq8gRSSM4NT5l3X6mPpShXfzQ4v_MxO4Kvu1r2a-S0TALc-4wuCoCfyoZxyZjo3shCmKvaEmPHBBHWtGF87Fqk_b1IwPAOHGy1gqSaxqlJ3i4WgPWTypvE6jIKFdNP7BcP1X8Ept2ILJVvulvaPkOC2", "width": 5116}], "place_id": "ChIJn-YYPAvCD0cR_K5ZAvrbuO4", "plus_code": {"compound_code": "425F+PX Wroc\u0142aw, Poland", "global_code": "9F3V425F+PX"}, "price_level": 2, "rating": 4.6, "reference": "ChIJn-YYPAvCD0cR_K5ZAvrbuO4", "types": ["restaurant", "bar", "food", "point_of_interest", "store", "establishment"], "user_ratings_total": 5097}, {"business_status": "OPERATIONAL", "formatted_address": "Sukiennice 9a, 50-107 Wroc\u0142aw, Poland", "geometry": {"location": {"lat": 51.1100088, "lng": 17.0311233}, "viewport": {"northeast": {"lat": 51.11127462989272, "lng": 17.0341113}, "southwest": {"lat": 51.10857497010727, "lng": 17.0301273}}}, "icon": "https://maps.gstatic.com/mapfiles/place_api/icons/v1/png_71/restaurant-71.png", "icon_background_color": "#FF9E67", "icon_mask_base_uri": "https://maps.gstatic.com/mapfiles/place_api/icons/v2/restaurant_pinlet", "name": "Pod Papugami Restaurant & Cocktail Bar", "opening_hours": {"open_now": false}, "photos": [{"height": 3735, "html_attributions": ["<a href=\"https://maps.google.com/maps/contrib/116596756702879059504\">Pod Papugami - Restauracja Kawiarnia Cocktail Bar</a>"], "photo_reference": "AXCi2Q5maIg2sRtmYH8X6uIVCmYoxUqxUsYUw8u7sWH5PVPJRSGI_WNiMoZpt4tIRqMKBEnTt-XCVo5hwTTyv2C51r27A4z5H7mbcSHwTRVX0lm0-hzU31lOXjRB8sapKFhgj8_ZArtfFndnJyv_9r4znPf8pB7ivKUXUwB6s_uQdTg9wWsA", "width": 5603}], "place_id": "ChIJTdAaqHXCD0cRTRqF7yRxmeY", "plus_code": {"compound_code": "426J+2C Wroc\u0142aw, Poland", "global_code": "9F3V426J+2C"}, "price_level": 3, "rating": 4.5, "reference": "ChIJTdAaqHXCD0cRTRqF7yRxmeY", "types": ["bar", "meal_delivery", "restaurant", "food", "point_of_interest", "establishment"], "user_ratings_total": 2924}, {"business_status": "OPERATIONAL", "formatted_address": "plac Grunwaldzki 53, 50-366 Wroc\u0142aw, Poland", "geometry": {"location": {"lat": 51.11396509999999, "lng": 17.069944}, "viewport": {"northeast": {"lat": 51.11539182989272, "lng": 17.07118587989272}, "southwest": {"lat": 51.11269217010727, "lng": 17.06848622010727}}}, "icon": "https://maps.gstatic.com/mapfiles/place_api/icons/v1/png_71/restaurant-71.png", "icon_background_color": "#FF9E67", "icon_mask_base_uri": "https://maps.gstatic.com/mapfiles/place_api/icons/v2/restaurant_pinlet", "name": "Restauracja Bella Storia", "opening_hours": {"open_now": true}, "photos": [{"height": 1080, "html_attributions": ["<a href=\"https://maps.google.com/maps/contrib/112125000919174226124\">Shaiz Khan</a>"], "photo_reference": "AXCi2Q7xVZ7sNe7V29_tJpuBtb_ragk1_Dwgsf7nVouTlXQPbgLZy4EW9pMqGVV65MQgQpDUlbSiqwKAicgLNaob6119_wl-GZFXO9WatSwNHhrM1ubaSWy16DJyNnx0ePPykpPgpnjWspk1MIJCfmGxV98cr_wkYHHCzXsNynXMyBFV1yeB", "width": 1920}], "place_id": "ChIJB1wphS7oD0cRIOvoDDbbn4E", "plus_code": {"compound_code": "4379+HX Wroc\u0142aw, Poland", "global_code": "9F3V4379+HX"}, "price_level": 2, "rating": 4.5, "reference": "ChIJB1wphS7oD0cRIOvoDDbbn4E", "types": ["restaurant", "bar", "food", "point_of_interest", "store", "establishment"], "user_ratings_total": 4562}, {"business_status": "OPERATIONAL", "formatted_address": "Rynek Ratusz 1A, 50-106 Wroc\u0142aw, Poland", "geometry": {"location": {"lat": 51.1094788, "lng": 17.031978}, "viewport": {"northeast": {"lat": 51.11075077989273, "lng": 17.03291672989272}, "southwest": {"lat": 51.10805112010728, "lng": 17.03021707010728}}}, "icon": "https://maps.gstatic.com/mapfiles/place_api/icons/v1/png_71/restaurant-71.png", "icon_background_color": "#FF9E67", "icon_mask_base_uri": "https://maps.gstatic.com/mapfiles/place_api/icons/v2/restaurant_pinlet", "name": "Restauracja Piwnica \u015awidnicka Wroc\u0142aw", "opening_hours": {"open_now": true}, "photos": [{"height": 2160, "html_attributions": ["<a href=\"https://maps.google.com/maps/contrib/116913626651138854565\">maciej karpowicz</a>"], "photo_reference": "AXCi2Q4qhj7XAf_yTbTgZQUIN6EywVFDaGiVnxULQ4exNKVpOVMtYqt-_BXBLzmnpUjcdySvT6qmNeB-lz1pnqEvW_DWpxLpN3OBY6KRpusGzpc_ldR38DsjbyOZhvq8bGkcWyiP-0MjOdo-IfEpEGqxm5iCi-dgT2wJsMu19LtF9m28PMaq", "width": 3840}], "place_id": "ChIJ1Xy1ObbDD0cRSMgloY_UW8I", "plus_code": {"compound_code": "425J+QQ Wroc\u0142aw, Poland", "global_code": "9F3V425J+QQ"}, "rating": 4.6, "reference": "ChIJ1Xy1ObbDD0cRSMgloY_UW8I", "types": ["restaurant", "food", "point_of_interest", "establishment"], "user_ratings_total": 3162}, {"business_status": "OPERATIONAL", "formatted_address": "Pomorska 1, 50-215 Wroc\u0142aw, Poland", "geometry": {"location": {"lat": 51.1143103, "lng": 17.0314381}, "viewport": {"northeast": {"lat": 51.11579642989272, "lng": 17.03274942989272}, "southwest": {"lat": 51.11309677010728, "lng": 17.03004977010728}}}, "icon": "https://maps.gstatic.com/mapfiles/place_api/icons/v1/png_71/restaurant-71.png", "icon_background_color": "#FF9E67", "icon_mask_base_uri": "https://maps.gstatic.com/mapfiles/place_api/icons/v2/restaurant_pinlet", "name": "La Maddalena", "opening_hours": {"open_now": false}, "photos": [{"height": 4016, "html_attributions": ["<a href=\"https://maps.google.com/maps/contrib/100750276720606270869\">Restauracja La Maddalena</a>"], "photo_reference": "AXCi2Q6BD0Q0vtuc2e_7AJ_pIOf_XlLA3m6qw1_4pJ_JfDIZ1V-fbxpLR24943qD9Q9y4wBn3eOPdkbUykRR1Yy1LGjEAI5DhWGJhwDhBtQJG_pPOHkieEp48TIMjSF7x07WBG6KKgZ0lhxBdwCq_fla92pz6kVpHE5CiJ-JEAMO5vgZR1QL", "width": 6016}], "place_id": "ChIJZX06WwvCD0cRvDJhzHvX3BQ", "plus_code": {"compound_code": "427J+PH Wroc\u0142aw, Poland", "global_code": "9F3V427J+PH"}, "price_level": 3, "rating": 4.5, "reference": "ChIJZX06WwvCD0cRvDJhzHvX3BQ", "types": ["restaurant", "food", "point_of_interest", "establishment"], "user_ratings_total": 2201}, {"business_status": "OPERATIONAL", "formatted_address": "\u015awi\u0119tego Miko\u0142aja 81, 50-126 Wroc\u0142aw, Poland", "geometry": {"location": {"lat": 51.111044, "lng": 17.0303924}, "viewport": {"northeast": {"lat": 51.11251082989273, "lng": 17.03136512989272}, "southwest": {"lat": 51.10981117010729, "lng": 17.02866547010728}}}, "icon": "https://maps.gstatic.com/mapfiles/place_api/icons/v1/png_71/bar-71.png", "icon_background_color": "#FF9E67", "icon_mask_base_uri": "https://maps.gstatic.com/mapfiles/place_api/icons/v2/bar_pinlet", "name": "Prewar", "opening_hours": {"open_now": false}, "photos": [{"height": 4656, "html_attributions": ["<a href=\"https://maps.google.com/maps/contrib/111779667360913791000\">Ela</a>"], "photo_reference": "AXCi2Q7E8HRV7gSYg3FYv3Y0znscAHNyOxithuMWFfhnYV1w17bT-LMlQ-pjYMHGhGB30eyFgNy-uN46ID-B54Z91Faqyw4oAtXeaNwphWifeFBz1NWhy6I8xQlOMSQS_TMeGkjCAufzdOVXbKtlvHVry6iVno4OmLYnRNNLGrqZr8VN7_4M", "width": 3496}], "place_id": "ChIJzaT-uXXCD0cRyD5YRuggie8", "plus_code": {"compound_code": "426J+C5 Wroc\u0142aw, Poland", "global_code": "9F3V426J+C5"}, "price_level": 1, "rating": 4.6, "reference": "ChIJzaT-uXXCD0cRyD5YRuggie8", "types": ["bar", "restaurant", "food", "point_of_interest", "establishment"], "user_ratings_total": 5193}, {"business_status": "OPERATIONAL", "formatted_address": "Rynek 22, 50-101 Wroc\u0142aw, Poland", "geometry": {"location": {"lat": 51.1091657, "lng": 17.031837}, "viewport": {"northeast": {"lat": 51.11055037989272, "lng": 17.03288847989272}, "southwest": {"lat": 51.10785072010728, "lng": 17.03018882010728}}}, "icon": "https://maps.gstatic.com/mapfiles/place_api/icons/v1/png_71/restaurant-71.png", "icon_background_color": "#FF9E67", "icon_mask_base_uri": "https://maps.gstatic.com/mapfiles/place_api/icons/v2/restaurant_pinlet", "name": "Tequilarnia", "opening_hours": {"open_now": false}, "photos": [{"height": 2252, "html_attributions": ["<a href=\"https://maps.google.com/maps/contrib/117936231005468208172\">Filip Szymanek</a>"], "photo_reference": "AXCi2Q4IhyxMEx9OwsyoHZ9MGy98OOwDs7MN5JrAjdxFlRGBDax91lKaW5WyMsXkSfBmR5QwPGZa_fApDj7YqX4r3Y4MLvgJpNs0E8SG_jgRCou2lfSkXF77hxNhNJi3-9dMNVmw2Xm6WNcKfdLXJujfVDKklQtMxFOV9vUx8CUN5XptNfNn", "width": 4000}], "place_id": "ChIJVyn2-_bDD0cRPD3LeGldPNc", "plus_code": {"compound_code": "425J+MP Wroc\u0142aw, Poland", "global_code": "9F3V425J+MP"}, "price_level": 3, "rating": 4.5, "reference": "ChIJVyn2-_bDD0cRPD3LeGldPNc", "types": ["restaurant", "food", "point_of_interest", "establishment"], "user_ratings_total": 2018}, {"business_status": "OPERATIONAL", "formatted_address": "Piaskowa 17, 50-158 Wroc\u0142aw, Poland", "geometry": {"location": {"lat": 51.112733, "lng": 17.0398311}, "viewport": {"northeast": {"lat": 51.11413282989272, "lng": 17.04123897989273}, "southwest": {"lat": 51.11143317010728, "lng": 17.03853932010728}}}, "icon": "https://maps.gstatic.com/mapfiles/place_api/icons/v1/png_71/restaurant-71.png", "icon_background_color": "#FF9E67", "icon_mask_base_uri": "https://maps.gstatic.com/mapfiles/place_api/icons/v2/restaurant_pinlet", "name": "Targowa - Craft Beer and Food", "opening_hours": {"open_now": true}, "photos": [{"height": 3000, "html_attributions": ["<a href=\"https://maps.google.com/maps/contrib/116128860410729949768\">Targowa - Craft Beer and Food</a>"], "photo_reference": "AXCi2Q4q6jowYIhKjaLQoSTjHQN7X94yqa20J1zxzE6EtiHnzD_Nez0vCd8SNICQUJ_TNeBmlyYGwo0JigzA2VP6JZYl_3pRWATx2FkZTMqgQYWGcLP2S5HyyvsdyQEjrUkGBCN7VyUxhctTz44FyiOagTSwWvZwP5ihaOwLglWB4XQS6oT1", "width": 4500}], "place_id": "ChIJi-HO7djpD0cRPaf1j8kDCIk", "plus_code": {"compound_code": "427Q+3W Wroc\u0142aw, Poland", "global_code": "9F3V427Q+3W"}, "price_level": 2, "rating": 4.5, "reference": "ChIJi-HO7djpD0cRPaf1j8kDCIk", "types": ["restaurant", "food", "point_of_interest", "establishment"], "user_ratings_total": 6262}, {"business_status": "OPERATIONAL", "formatted_address": "\u015awidnicka 8A, 50-529 Wroc\u0142aw, Poland", "geometry": {"location": {"lat": 51.1078459, "lng": 17.0327859}, "viewport": {"northeast": {"lat": 51.10921917989272, "lng": 17.03376712989272}, "southwest": {"lat": 51.10651952010728, "lng": 17.03106747010728}}}, "icon": "https://maps.gstatic.com/mapfiles/place_api/icons/v1/png_71/restaurant-71.png", "icon_background_color": "#FF9E67", "icon_mask_base_uri": "https://maps.gstatic.com/mapfiles/place_api/icons/v2/restaurant_pinlet", "name": "Restauracja \u010cesk\u00e1", "opening_hours": {"open_now": false}, "photos": [{"height": 3024, "html_attributions": ["<a href=\"https://maps.google.com/maps/contrib/105568007722274413556\">S\u0142awek R</a>"], "photo_reference": "AXCi2Q4HZWLUr_uDw1CY1JRsnFvszi_t8NB7Hn0PVkum7X0Dr3W1F_QNCT38r5V9Jluwv60UKDq2ZG19imZ0DB2f8rjwqPSKm1pdhB1cZjZm4tzNYP4TvuEndG_I2jK1NrTGJznj4Da2WePVuaUlzAxfP8uCa8kLXoGbuX2GTmehcS7HL2kI", "width": 4032}], "place_id": "ChIJE_GkInTCD0cRaHoMOlo6-bo", "plus_code": {"compound_code": "425M+44 Wroc\u0142aw, Poland", "global_code": "9F3V425M+44"}, "price_level": 2, "rating": 4.5, "reference": "ChIJE_GkInTCD0cRaHoMOlo6-bo", "types": ["restaurant", "food", "point_of_interest", "establishment"], "user_ratings_total": 8083}, {"business_status": "OPERATIONAL", "formatted_address": "Katedralna 9, 50-328 Wroc\u0142aw, Poland", "geometry": {"location": {"lat": 51.114186, "lng": 17.0440984}, "viewport": {"northeast": {"lat": 51.11604467989272, "lng": 17.04520512989272}, "southwest": {"lat": 51.11334502010728, "lng": 17.04250547010728}}}, "icon": "https://maps.gstatic.com/mapfiles/place_api/icons/v1/png_71/restaurant-71.png", "icon_background_color": "#FF9E67", "icon_mask_base_uri": "https://maps.gstatic.com/mapfiles/place_api/icons/v2/restaurant_pinlet", "name": "Restauracja Lwia Brama\u00b2", "opening_hours": {"open_now": true}, "photos": [{"height": 1000, "html_attributions": ["<a href=\"https://maps.google.com/maps/contrib/102182386394023277749\">Restauracja Lwia Brama</a>"], "photo_reference": "AXCi2Q7Lvld7owBCGZU7u9RGc0hIkFbEOv5W4U-9I_jgtIikTgwMp7vHTvkbk69mOy9PPj8K0SnS-gF2k8ZVg1nPytRlnm3HJg0IXDYCCt0zYrUx5GJlum1eKp5MBFdU2k_JIz3n-9-EDmPtxicqimUAMD_-fbZYY_YW6gA10sZi31076ddb", "width": 1500}], "place_id": "ChIJ3e-I6dnpD0cRJWH1ezTEfdY", "plus_code": {"compound_code": "427V+MJ Wroc\u0142aw, Poland", "global_code": "9F3V427V+MJ"}, "price_level": 2, "rating": 4.5, "reference": "ChIJ3e-I6dnpD0cRJWH1ezTEfdY", "types": ["restaurant", "food", "point_of_interest", "establishment"], "user_ratings_total": 1646}], "status": "OK"}