{"html_attributions": [], "next_page_token": "AXCi2Q7NVqAYx8OHOljaiCn-kmOX8R0yZTnqcU2EEOIIOnicO8xIEvI6Q0WTgif0pthK1hcTe7wiibQ6PxEQsRKWbRoz_ZKrVWkIttkJ2rs01tcgLcdxXqQ-qROZXp9wvmTQ6IuZay2DmvskFXdQlIGG4ZvXBnT2hjEs-YUElIsnQEIf0peQID_cvnOHnDSM6351vUkRQEh5xn3WlnSToxdt07PV1s5pnwGIIAYIDDlUVTHaOJn8DLsUeKRDix_eyHLMcX5i8k4IgZw5uMbV3YSTSm5OpB0k9-WrQprmNFomsksw7hIPcl_jnthH5h_I2aBY69rozyCIB1O1Lcmy_oHuS7qdCqNSRm3I7g69jev8wP_paaylytmhDIKPceYhCyUhQ97mDj78P4zQUbZn_ouKvplur18C7vD32ybpjhlhAGFzrgVU3WpQ5fQQPQ", "results": [{"business_status": "OPERATIONAL", "formatted_address": "Krup\u00f3wki 1, 34-500 Zakopane, Poland", "geometry": {"location": {"lat": 49.29681, "lng": 19.948555}, "viewport": {"northeast": {"lat": 49.29815982989273, "lng": 19.94990477989272}, "southwest": {"lat": 49.29546017010728, "lng": 19.94720512010728}}}, "icon": "https://maps.gstatic.com/mapfiles/place_api/icons/v1/png_71/restaurant-71.png", "icon_background_color": "#FF9E67", "icon_mask_base_uri": "https://maps.gstatic.com/mapfiles/place_api/icons/v2/restaurant_pinlet", "name": "Gazdowo Ku\u017ania Karczma", "opening_hours": {"open_now": true}, "photos": [{"height": 1000, "html_attributions": ["<a href=\"https://maps.google.com/maps/contrib/112338264863879504581\">A Google User</a>"], "photo_reference": "AXCi2Q6dnmCxu-YnXNq1gEO0lVT3ByHDusBCsx3poWhYTsvjjmDjoeHquMNqasNb6TKneDzrAtNKIaAjG4AgjvmCQbTGhTNBXBwMm24M8LYFXC4QFp65CkkIqmTs94Kh21wthe4CzpPTQqvh3G7tLSsww9venvyv10joDjbmUSe9VzxJbvPh", "width": 1500}], "place_id": "ChIJbe5DXZryFUcRGpQQdO9iMRs", "plus_code": {"compound_code": "7WWX+PC Zakopane, Poland", "global_code": "8FXX7WWX+PC"}, "price_level": 2, "rating": 4.5, "reference": "ChIJbe5DXZryFUcRGpQQdO9iMRs", "types": ["restaurant", "food", "point_of_interest", "establishment"], "user_ratings_total": 11001}, {"business_status": "OPERATIONAL", "formatted_address": "J\u00f3zefa Pi\u0142sudskiego 6, 34-500 Zakopane, Poland", "geometry": {"location": {"lat": 49.29172519999999, "lng": 19.9570465}, "viewport": {"northeast": {"lat": 49.29313182989272, "lng": 19.95855102989272}, "southwest": {"lat": 49.29043217010727, "lng": 19.95585137010728}}}, "icon": "https://maps.gstatic.com/mapfiles/place_api/icons/v1/png_71/restaurant-71.png", "icon_background_color": "#FF9E67", "icon_mask_base_uri": "https://maps.gstatic.com/mapfiles/place_api/icons/v2/restaurant_pinlet", "name": "B\u0105kowo Zohylina Ni\u017anio", "opening_hours": {"open_now": false}, "photos": [{"height": 2736, "html_attributions": ["<a href=\"https://maps.google.com/maps/contrib/101422624738588755487\">massimo togni</a>"], "photo_reference": "AXCi2Q44tl4SuntE-rDnJ2n5ZRGqNearzjFhUP_q8U61TiUyvdKBMpO7LzplO-9ggwy9FSRVFcXDxa-MlyF1EiVlbs9k-GWXSs96h8Hd3gJ_gaIIgvN47gu3Fg8IwMSysWxaZht0l1_EYnzCwD3mvktt6Q9lp3fi0XpRd-9lJPcP6jVnihdm", "width": 3648}], "place_id": "ChIJxScKQZTyFUcRL5GNWmgSiZA", "plus_code": {"compound_code": "7XR4+MR Zakopane, Poland", "global_code": "8FXX7XR4+MR"}, "price_level": 2, "rating": 4.6, "reference": "ChIJxScKQZTyFUcRL5GNWmgSiZA", "types": ["restaurant", "food", "point_of_interest", "establishment"], "user_ratings_total": 10876}, {"business_status": "OPERATIONAL", "formatted_address": "Krup\u00f3wki 43, 34-500 Zakopane, Poland", "geometry": {"location": {"lat": 49.2934418, "lng": 19.9553986}, "viewport": {"northeast": {"lat": 49.29482707989273, "lng": 19.95665622989272}, "southwest": {"lat": 49.29212742010728, "lng": 19.95395657010728}}}, "icon": "https://maps.gstatic.com/mapfiles/place_api/icons/v1/png_71/restaurant-71.png", "icon_background_color": "#FF9E67", "icon_mask_base_uri": "https://maps.gstatic.com/mapfiles/place_api/icons/v2/restaurant_pinlet", "name": "Karczma Zapiecek", "opening_hours": {"open_now": true}, "photos": [{"height": 600, "html_attributions": ["<a href=\"https://maps.google.com/maps/contrib/110865663527238231152\">A Google User</a>"], "photo_reference": "AXCi2Q5TNPDO60ldtqaeKzL-XmLUoIbpLG90iY4yf5UPlg5cjbBbkpxIIRNZSU8Uc3cftsB6kJPmUpCPqZ2TQABaAUUzZl4n6so2jVFfomJd7xP9_jsHhc94a8K6deOlsYJB9BfM3uxR2IJixIuoC5I0JOlq43_PcySjh0Lz-ON4bG5A2yVY", "width": 900}], "place_id": "ChIJ1c7prZbyFUcRjeAeywUjdVI", "plus_code": {"compound_code": "7XV4+95 Zakopane, Poland", "global_code": "8FXX7XV4+95"}, "price_level": 2, "rating": 4.5, "reference": "ChIJ1c7prZbyFUcRjeAeywUjdVI", "types": ["restaurant", "food", "point_of_interest", "establishment"], "user_ratings_total": 11710}, {"business_status": "OPERATIONAL", "formatted_address": "J\u00f3zefa Pi\u0142sudskiego 28A, 34-500 Zakopane, Poland", "geometry": {"location": {"lat": 49.2848802, "lng": 19.9629956}, "viewport": {"northeast": {"lat": 49.28611907989272, "lng": 19.96438402989272}, "southwest": {"lat": 49.28341942010728, "lng": 19.96168437010727}}}, "icon": "https://maps.gstatic.com/mapfiles/place_api/icons/v1/png_71/restaurant-71.png", "icon_background_color": "#FF9E67", "icon_mask_base_uri": "https://maps.gstatic.com/mapfiles/place_api/icons/v2/restaurant_pinlet", "name": "B\u0105kowo Zohylina Wy\u017anio", "opening_hours": {"open_now": false}, "photos": [{"height": 2988, "html_attributions": ["<a href=\"https://maps.google.com/maps/contrib/113552173546763287844\">A Google User</a>"], "photo_reference": "AXCi2Q5XvSH7yHpW_DGKmHhW0qxdJ4KAAKZ1LgPAfHA6sU4sFOKXr35t1g9UIHGWhopKHuO_CmVlWQKa1THuhPgDRjHv3u7p4S6bq5apXBCbRtyi3C0uewFSaa30k5NL2AnAvr0qkbNHcv5DW7BBiIYIP9g-kQa3YUM9fI_83DicyamMDT7N", "width": 5312}], "place_id": "ChIJc-IXpcHyFUcRlAJokfgIawQ", "plus_code": {"compound_code": "7XM7+X5 Zakopane, Poland", "global_code": "8FXX7XM7+X5"}, "price_level": 2, "rating": 4.6, "reference": "ChIJc-IXpcHyFUcRlAJokfgIawQ", "types": ["restaurant", "food", "point_of_interest", "establishment"], "user_ratings_total": 6858}, {"business_status": "OPERATIONAL", "formatted_address": "Ma\u0142e \u017bywcza\u0144skie 11A, 34-500 Zakopane, Poland", "geometry": {"location": {"lat": 49.287654, "lng": 19.9518849}, "viewport": {"northeast": {"lat": 49.28892742989272, "lng": 19.95312077989272}, "southwest": {"lat": 49.28622777010727, "lng": 19.95042112010728}}}, "icon": "https://maps.gstatic.com/mapfiles/place_api/icons/v1/png_71/restaurant-71.png", "icon_background_color": "#FF9E67", "icon_mask_base_uri": "https://maps.gstatic.com/mapfiles/place_api/icons/v2/restaurant_pinlet", "name": "Czarci Jar. Karczma regionalna", "opening_hours": {"open_now": false}, "photos": [{"height": 3024, "html_attributions": ["<a href=\"https://maps.google.com/maps/contrib/115230326848843178397\">pawelkuczynski</a>"], "photo_reference": "AXCi2Q6CTKzGMiDlnIB-JR83o-zpfLTL0ehcN1kXFpamGFGyT8iBoMPNNQvi7VQI052HgqzRWZT_E7gMpnsec-M4nrsXxG1rJ1vg_DPAUU9tRjPG5ixVBJgkYUHEd8JVXGXiOl2qYMgYci8ZcJOZmG6ormyxe-I5ItzXw4wWMfbgzhZ-8jmO", "width": 4032}], "place_id": "ChIJ1ZAG4L3yFUcRc_I6rcXsSks", "plus_code": {"compound_code": "7XQ2+3Q Zakopane, Poland", "global_code": "8FXX7XQ2+3Q"}, "price_level": 2, "rating": 4.6, "reference": "ChIJ1ZAG4L3yFUcRc_I6rcXsSks", "types": ["restaurant", "food", "point_of_interest", "establishment"], "user_ratings_total": 4681}, {"business_status": "OPERATIONAL", "formatted_address": "ul, Bulwary S\u0142owackiego 23, 34-500 Zakopane, Poland", "geometry": {"location": {"lat": 49.2850214, "lng": 19.9761189}, "viewport": {"northeast": {"lat": 49.28635052989272, "lng": 19.97740867989272}, "southwest": {"lat": 49.28365087010727, "lng": 19.97470902010728}}}, "icon": "https://maps.gstatic.com/mapfiles/place_api/icons/v1/png_71/restaurant-71.png", "icon_background_color": "#FF9E67", "icon_mask_base_uri": "https://maps.gstatic.com/mapfiles/place_api/icons/v2/restaurant_pinlet", "name": "Karczma Przy M\u0142ynie", "opening_hours": {"open_now": false}, "photos": [{"height": 2592, "html_attributions": ["<a href=\"https://maps.google.com/maps/contrib/110048826325502343719\">Andrzej Jarosik</a>"], "photo_reference": "AXCi2Q7YjxFR_CfdCA5sEZN393Tld4r09r5S9QDw8LcuFQvbwZGi0sXbuc5MmkClPuWLTIkIoH_4V-uxuxCNP7HSknzTfQ0woPSEhjC4Knm2VrJXOe6bpIFDawDq5veAzHrmVcIqnVrdvzqjNn4s2ZBRuqhxoOJ3NjdobOIwj19TRhmoKTYv", "width": 4608}], "place_id": "ChIJb1D9i-fyFUcRnplxsc1u3sM", "plus_code": {"compound_code": "7XPG+2C Zakopane, Poland", "global_code": "8FXX7XPG+2C"}, "price_level": 2, "rating": 4.4, "reference": "ChIJb1D9i-fyFUcRnplxsc1u3sM", "types": ["restaurant", "food", "point_of_interest", "establishment"], "user_ratings_total": 5740}, {"business_status": "OPERATIONAL", "formatted_address": "Krup\u00f3wki 33, 34-500 Zakopane, Poland", "geometry": {"location": {"lat": 49.29409340000001, "lng": 19.9536074}, "viewport": {"northeast": {"lat": 49.29535472989272, "lng": 19.95496017989272}, "southwest": {"lat": 49.29265507010728, "lng": 19.95226052010728}}}, "icon": "https://maps.gstatic.com/mapfiles/place_api/icons/v1/png_71/restaurant-71.png", "icon_background_color": "#FF9E67", "icon_mask_base_uri": "https://maps.gstatic.com/mapfiles/place_api/icons/v2/restaurant_pinlet", "name": "Stek Cha\u0142upa", "opening_hours": {"open_now": true}, "photos": [{"height": 1161, "html_attributions": ["<a href=\"https://maps.google.com/maps/contrib/116995671489047807336\">A Google User</a>"], "photo_reference": "AXCi2Q5tnL6GxCtaJLmJq0-fCTBcuGHbvD7w2idDSPZNP06zLlddoYmNyB4gJ43IbZQ4Lrne9niSZAiGYmnJHWFqwxd5SEsS7j7hYgcT5Ai1UchgKP9KVVYalQFL0gQsPkQtXYsSM3dMr6qCikWZ3S534z0lz63QYnlD2qDuj-c4bYwyGJzZ", "width": 1741}], "place_id": "ChIJzSefzJbyFUcRXTIe4G-yI8c", "plus_code": {"compound_code": "7XV3+JC Zakopane, Poland", "global_code": "8FXX7XV3+JC"}, "price_level": 2, "rating": 4.4, "reference": "ChIJzSefzJbyFUcRXTIe4G-yI8c", "types": ["restaurant", "food", "point_of_interest", "establishment"], "user_ratings_total": 10524}, {"business_status": "OPERATIONAL", "formatted_address": "Droga Oswalda Balzera 17e, 34-500 Zakopane, Poland", "geometry": {"location": {"lat": 49.2852113, "lng": 19.9861821}, "viewport": {"northeast": {"lat": 49.28651312989272, "lng": 19.98742752989272}, "southwest": {"lat": 49.28381347010728, "lng": 19.98472787010727}}}, "icon": "https://maps.gstatic.com/mapfiles/place_api/icons/v1/png_71/restaurant-71.png", "icon_background_color": "#FF9E67", "icon_mask_base_uri": "https://maps.gstatic.com/mapfiles/place_api/icons/v2/restaurant_pinlet", "name": "Marzanna i Ryszard Bubka", "opening_hours": {"open_now": false}, "photos": [{"height": 2448, "html_attributions": ["<a href=\"https://maps.google.com/maps/contrib/100069156047028690799\">A Google User</a>"], "photo_reference": "AXCi2Q6Oiwo-ukUsizWTMMku5awJwLy4TlpgolO6wAMhykLR9m4M5h1lKMNVvmiAXcu76m81Ux0xx-fTS5148R4LMmxXmJ1_yUy7iLGCJnBGochoXhv_NTanjxOQijC0dOl07-vM8NA8gkx5DzAepaVNcdNOquC6MB-ypJ4i3v8T1y4GPA9V", "width": 3264}], "place_id": "ChIJbRVsVODyFUcRHERZT7M3Ck0", "plus_code": {"compound_code": "7XPP+3F Zakopane, Poland", "global_code": "8FXX7XPP+3F"}, "price_level": 1, "rating": 4.7, "reference": "ChIJbRVsVODyFUcRHERZT7M3Ck0", "types": ["restaurant", "food", "point_of_interest", "establishment"], "user_ratings_total": 7677}, {"business_status": "OPERATIONAL", "formatted_address": "Krup\u00f3wki 28a, 34-500 Zakopane, Poland", "geometry": {"location": {"lat": 49.293566, "lng": 19.9541974}, "viewport": {"northeast": {"lat": 49.29488917989272, "lng": 19.95599907989272}, "southwest": {"lat": 49.29218952010728, "lng": 19.95329942010728}}}, "icon": "https://maps.gstatic.com/mapfiles/place_api/icons/v1/png_71/restaurant-71.png", "icon_background_color": "#FF9E67", "icon_mask_base_uri": "https://maps.gstatic.com/mapfiles/place_api/icons/v2/restaurant_pinlet", "name": "Karczma Krupowa Izba", "opening_hours": {"open_now": true}, "photos": [{"height": 600, "html_attributions": ["<a href=\"https://maps.google.com/maps/contrib/116165966426890441119\">A Google User</a>"], "photo_reference": "AXCi2Q7Sn4tDMzXZoZdUa6gBU-ZSMavZLDDomE76STIVcXn678wkHAV03nLoMRGtnXJtKJJdfMvVCv6ke4FzgrjkMPykQ6gTtViffvRHoam8K7LXh3XhT-cTbapWNnZ40cHCO-TOZ8e6Rnrz2bul6MgGq-IIcPEx8SfVIP9mHHDd7i9q8SQn", "width": 900}], "place_id": "ChIJ0Wvhy5byFUcRnKZ_XoB4Stg", "plus_code": {"compound_code": "7XV3+CM Zakopane, Poland", "global_code": "8FXX7XV3+CM"}, "price_level": 2, "rating": 4.5, "reference": "ChIJ0Wvhy5byFUcRnKZ_XoB4Stg", "types": ["bar", "restaurant", "food", "point_of_interest", "establishment"], "user_ratings_total": 5857}, {"business_status": "OPERATIONAL", "formatted_address": "Krup\u00f3wki 40, 34-500 Zakopane, Poland", "geometry": {"location": {"lat": 49.2927811, "lng": 19.9561356}, "viewport": {"northeast": {"lat": 49.29411017989272, "lng": 19.95748967989272}, "southwest": {"lat": 49.29141052010728, "lng": 19.95479002010728}}}, "icon": "https://maps.gstatic.com/mapfiles/place_api/icons/v1/png_71/restaurant-71.png", "icon_background_color": "#FF9E67", "icon_mask_base_uri": "https://maps.gstatic.com/mapfiles/place_api/icons/v2/restaurant_pinlet", "name": "Restauracja G\u00f3ralski Browar | Zakopane - Krup\u00f3wki", "opening_hours": {"open_now": true}, "photos": [{"height": 3376, "html_attributions": ["<a href=\"https://maps.google.com/maps/contrib/101526005666658344074\">Nina Nirada</a>"], "photo_reference": "AXCi2Q68MSXxu_F2Y3Yjn68y5fh-jtFOT8WE959--KveAdWGnCzOIiM3UonCQ8ABchaw98BrtIdD8njSqI10_3eLdGPYsK46ijtKG7n4V627FvGhaksyxVQgA1YUneO-RQwhxGK8yxAnLOnja7Zgq3tOqMICx7dkpT0u5JIy07n44tIEq1tG", "width": 5984}], "place_id": "ChIJgaqMwojzFUcRi5-JHfvvHwA", "plus_code": {"compound_code": "7XV4+4F Zakopane, Poland", "global_code": "8FXX7XV4+4F"}, "price_level": 2, "rating": 4.5, "reference": "ChIJgaqMwojzFUcRi5-JHfvvHwA", "types": ["restaurant", "cafe", "bar", "store", "food", "point_of_interest", "establishment"], "user_ratings_total": 6930}, {"business_status": "OPERATIONAL", "formatted_address": "Krup\u00f3wki 61, 34-500 Zakopane, Poland", "geometry": {"location": {"lat": 49.2926627, "lng": 19.9574971}, "viewport": {"northeast": {"lat": 49.29412682989272, "lng": 19.95904377989272}, "southwest": {"lat": 49.29142717010728, "lng": 19.95634412010728}}}, "icon": "https://maps.gstatic.com/mapfiles/place_api/icons/v1/png_71/restaurant-71.png", "icon_background_color": "#FF9E67", "icon_mask_base_uri": "https://maps.gstatic.com/mapfiles/place_api/icons/v2/restaurant_pinlet", "name": "Karczma Bac\u00f3wka", "opening_hours": {"open_now": true}, "photos": [{"height": 6936, "html_attributions": ["<a href=\"https://maps.google.com/maps/contrib/106658420893088238429\">Andrzej Rakowicz</a>"], "photo_reference": "AXCi2Q6lGu-AHwM4SWRIwIa-lFZcQLVXbKZW3R8R5n7FIRp6hfaQI3bZDe7UI7bs8AggqJxwoLIY6nmj_-GW2X9lLeaNDneYLp-Dlycbc5n_XEDW00-U1IMDJ9qQ52SSVgmRYUQgl-1w8F8Srk8gw6Jin7A-nltA1OqpDX-tlHzRHaBrrwg4", "width": 9248}], "place_id": "ChIJ7TiCEpTyFUcRMC4wGLxOcHI", "plus_code": {"compound_code": "7XV4+3X Zakopane, Poland", "global_code": "8FXX7XV4+3X"}, "price_level": 2, "rating": 4.3, "reference": "ChIJ7TiCEpTyFUcRMC4wGLxOcHI", "types": ["restaurant", "food", "point_of_interest", "establishment"], "user_ratings_total": 5889}, {"business_status": "OPERATIONAL", "formatted_address": "Hr. W\u0142adys\u0142awa Zamoyskiego 11, 34-500 Zakopane, Poland", "geometry": {"location": {"lat": 49.2900141, "lng": 19.9634295}, "viewport": {"northeast": {"lat": 49.29132662989272, "lng": 19.96472662989272}, "southwest": {"lat": 49.28862697010727, "lng": 19.96202697010728}}}, "icon": "https://maps.gstatic.com/mapfiles/place_api/icons/v1/png_71/restaurant-71.png", "icon_background_color": "#FF9E67", "icon_mask_base_uri": "https://maps.gstatic.com/mapfiles/place_api/icons/v2/restaurant_pinlet", "name": "Ma\u0142a Szwajcaria", "opening_hours": {"open_now": false}, "photos": [{"height": 600, "html_attributions": ["<a href=\"https://maps.google.com/maps/contrib/117816252333793083543\">Ma\u0142a Szwajcaria. Restauracja</a>"], "photo_reference": "AXCi2Q7tq-yL20C33pjD0aPM9dcXDXMbmEH_ZIGBRsG70n2FziiiwZFkWzT8PLW5Kte_BOHOfwHL6GOYqaJNNT5xdD3VNTfuoLCSMZQxX2DvrzR-WwlL15wMEMc6N_DhoWZ6AHJVhzRk7gDxLn3nC1weeNVYdi5lAK1oNuIzcZU8DR_KTi-L", "width": 800}], "place_id": "ChIJc8ZFIuvyFUcRVJ1nTzn6Weo", "plus_code": {"compound_code": "7XR7+29 Zakopane, Poland", "global_code": "8FXX7XR7+29"}, "price_level": 2, "rating": 4.5, "reference": "ChIJc8ZFIuvyFUcRVJ1nTzn6Weo", "types": ["restaurant", "food", "point_of_interest", "establishment"], "user_ratings_total": 4227}, {"business_status": "OPERATIONAL", "formatted_address": "Ko\u015bcieliska 52, 34-500 Zakopane, Poland", "geometry": {"location": {"lat": 49.2911349, "lng": 19.936125}, "viewport": {"northeast": {"lat": 49.29258052989272, "lng": 19.93754897989272}, "southwest": {"lat": 49.28988087010728, "lng": 19.93484932010728}}}, "icon": "https://maps.gstatic.com/mapfiles/place_api/icons/v1/png_71/restaurant-71.png", "icon_background_color": "#FF9E67", "icon_mask_base_uri": "https://maps.gstatic.com/mapfiles/place_api/icons/v2/restaurant_pinlet", "name": "Sopa i Lis", "opening_hours": {"open_now": false}, "photos": [{"height": 4248, "html_attributions": ["<a href=\"https://maps.google.com/maps/contrib/112835538439930712627\">D C</a>"], "photo_reference": "AXCi2Q7BgPRIHkk_C7DXh_4d_6aj2u8pxm65DqU5OtR7xiY0Vowrqol2LldJl39_Yr5qf4G-P11IMRdTK9PKluJ1bQyh9OnSpHdt2Eg2dhLQ2ZHstuf3cuiosKfOUo-RwKFZq3drj3LzltBI5YAlPtXRx73GfI77gcovDs-sOZqa7DUiGi3l", "width": 5664}], "place_id": "ChIJMdE6xaHyFUcRbdLSREg8ixo", "plus_code": {"compound_code": "7WRP+FF Zakopane, Poland", "global_code": "8FXX7WRP+FF"}, "price_level": 2, "rating": 4.4, "reference": "ChIJMdE6xaHyFUcRbdLSREg8ixo", "types": ["restaurant", "food", "point_of_interest", "establishment"], "user_ratings_total": 2475}, {"business_status": "OPERATIONAL", "formatted_address": "Krup\u00f3wki 4a, 34-500 Zakopane, Poland", "geometry": {"location": {"lat": 49.2961245, "lng": 19.9492382}, "viewport": {"northeast": {"lat": 49.29755887989273, "lng": 19.95066857989272}, "southwest": {"lat": 49.29485922010728, "lng": 19.94796892010728}}}, "icon": "https://maps.gstatic.com/mapfiles/place_api/icons/v1/png_71/restaurant-71.png", "icon_background_color": "#FF9E67", "icon_mask_base_uri": "https://maps.gstatic.com/mapfiles/place_api/icons/v2/restaurant_pinlet", "name": "STRH Bistro Art Cafe", "opening_hours": {"open_now": true}, "photos": [{"height": 1200, "html_attributions": ["<a href=\"https://maps.google.com/maps/contrib/118062364315606196399\">A Google User</a>"], "photo_reference": "AXCi2Q6U5A_Ro1R0leoLOmMYXcwe6s90ad17-tkhk6IAf3TOHtWgQ6ekgeq_fCz6qzPZCBhtlGjToh_Yk9iVo0qOl4FBa0Ey-gFzL9BAbE3kZEsuF4tSAQU7aCXWTwuSFqteF6fUReOL5edM1HMCiU2RlE1S3BIYLHhByVEopUoO-PbUjyzK", "width": 1800}], "place_id": "ChIJdybtC5ryFUcRZgPolwzQk1k", "plus_code": {"compound_code": "7WWX+CM Zakopane, Poland", "global_code": "8FXX7WWX+CM"}, "price_level": 2, "rating": 4.7, "reference": "ChIJdybtC5ryFUcRZgPolwzQk1k", "types": ["restaurant", "cafe", "food", "point_of_interest", "establishment"], "user_ratings_total": 4710}, {"business_status": "OPERATIONAL", "formatted_address": "Krup\u00f3wki 29, 34-500 Zakopane, Poland", "geometry": {"location": {"lat": 49.2949261, "lng": 19.9542442}, "viewport": {"northeast": {"lat": 49.29637837989272, "lng": 19.95572997989272}, "southwest": {"lat": 49.29367872010727, "lng": 19.95303032010728}}}, "icon": "https://maps.gstatic.com/mapfiles/place_api/icons/v1/png_71/restaurant-71.png", "icon_background_color": "#FF9E67", "icon_mask_base_uri": "https://maps.gstatic.com/mapfiles/place_api/icons/v2/restaurant_pinlet", "name": "G\u00f3ralska Tradycja", "opening_hours": {"open_now": true}, "photos": [{"height": 1280, "html_attributions": ["<a href=\"https://maps.google.com/maps/contrib/111452960748701587904\">G\u00f3ralska Tradycja</a>"], "photo_reference": "AXCi2Q4NSDyy_k9Hz9pLhif7L9FddJe_6FQ1OKej2mnzKuCIII9eeUur0VQDMooCq0Jz3IREL5YvHB8eqHzPwv5cMjt8k-UjzxYV29RR0cVcOGBtVMh99YrQyBxVgIgTtBxiORjRqQRiDhy2SedxKq7SPTJ5cyWFHNTblJaWcbcpV9SlAIur", "width": 1920}], "place_id": "ChIJ___DK5HyFUcRKQDfFoWMMsA", "plus_code": {"compound_code": "7XV3+XM Zakopane, Poland", "global_code": "8FXX7XV3+XM"}, "price_level": 3, "rating": 4.5, "reference": "ChIJ___DK5HyFUcRKQDfFoWMMsA", "types": ["restaurant", "food", "point_of_interest", "establishment"], "user_ratings_total": 2549}, {"business_status": "OPERATIONAL", "formatted_address": "Krup\u00f3wki 9, 34-500 Zakopane, Poland", "geometry": {"location": {"lat": 49.2957662, "lng": 19.9504311}, "viewport": {"northeast": {"lat": 49.29688712989272, "lng": 19.95189912989273}, "southwest": {"lat": 49.29418747010727, "lng": 19.94919947010728}}}, "icon": "https://maps.gstatic.com/mapfiles/place_api/icons/v1/png_71/restaurant-71.png", "icon_background_color": "#FF9E67", "icon_mask_base_uri": "https://maps.gstatic.com/mapfiles/place_api/icons/v2/restaurant_pinlet", "name": "Karczma u Fiakra", "opening_hours": {"open_now": true}, "photos": [{"height": 3000, "html_attributions": ["<a href=\"https://maps.google.com/maps/contrib/104404351603749820698\">A Google User</a>"], "photo_reference": "AXCi2Q6phs0Wobp2ckj0sxxZZh0KqHT9XrM71hhdvMPDlL7RkB1fuGRltSOb7ajoBbbcWNruj5AYn9bIaCaP-cZj2WMtUnNbQQEk_iMblaDgksgGSPTk7P45Zm8Mgy82nGsgLILPRz96DTbfI203o1SnPcY5ccNxMsFb4pX_zQMUhstWxfxI", "width": 4000}], "place_id": "ChIJZUd1OOLzFUcR42GY3zwOdXc", "plus_code": {"compound_code": "7XW2+85 Zakopane, Poland", "global_code": "8FXX7XW2+85"}, "price_level": 2, "rating": 4.6, "reference": "ChIJZUd1OOLzFUcR42GY3zwOdXc", "types": ["restaurant", "food", "point_of_interest", "establishment"], "user_ratings_total": 7471}, {"business_status": "OPERATIONAL", "formatted_address": "Droga Oswalda Balzera 16b, 34-500 Zakopane, Poland", "geometry": {"location": {"lat": 49.2849598, "lng": 19.9840081}, "viewport": {"northeast": {"lat": 49.28638182989272, "lng": 19.98540572989272}, "southwest": {"lat": 49.28368217010728, "lng": 19.98270607010728}}}, "icon": "https://maps.gstatic.com/mapfiles/place_api/icons/v1/png_71/restaurant-71.png", "icon_background_color": "#FF9E67", "icon_mask_base_uri": "https://maps.gstatic.com/mapfiles/place_api/icons/v2/restaurant_pinlet", "name": "Karczma u Starego", "opening_hours": {"open_now": false}, "photos": [{"height": 3024, "html_attributions": ["<a href=\"https://maps.google.com/maps/contrib/105445944531052719230\">Rados\u0142aw Wilk</a>"], "photo_reference": "AXCi2Q6TdcqZekMdvvFiTl7SXiC4rLUoR9KrSaU5p_Ma7BbMbrb1cnBbx9kWIy9_3kW3IhFLhkM9ytZV_uKYZIPovsBPjTeAiKADmKl-t3vhatzbRui8f9YDmV7R49ma5NshbuFt2l26e2J-GNzpD6QZfMPhqH18R_QQH9cHCSDVybkzS68A", "width": 4032}], "place_id": "ChIJG9U26eDyFUcRcqOq0DsNF-4", "plus_code": {"compound_code": "7XMM+XJ Zakopane, Poland", "global_code": "8FXX7XMM+XJ"}, "price_level": 1, "rating": 4.6, "reference": "ChIJG9U26eDyFUcRcqOq0DsNF-4", "types": ["restaurant", "food", "point_of_interest", "establishment"], "user_ratings_total": 2620}, {"business_status": "OPERATIONAL", "formatted_address": "Jana Kasprowicza 1A, 34-500 Zakopane, Poland", "geometry": {"location": {"lat": 49.3054637, "lng": 19.9584006}, "viewport": {"northeast": {"lat": 49.30682297989271, "lng": 19.95989957989272}, "southwest": {"lat": 49.30412332010727, "lng": 19.95719992010728}}}, "icon": "https://maps.gstatic.com/mapfiles/place_api/icons/v1/png_71/restaurant-71.png", "icon_background_color": "#FF9E67", "icon_mask_base_uri": "https://maps.gstatic.com/mapfiles/place_api/icons/v2/restaurant_pinlet", "name": "Karczma Pod Gontem", "opening_hours": {"open_now": false}, "photos": [{"height": 1067, "html_attributions": ["<a href=\"https://maps.google.com/maps/contrib/110270199833802215139\">Karczma Pod Gontem</a>"], "photo_reference": "AXCi2Q7G7Zxl2XqbyPySoATHhEjJThP0_LHkpHU9MXpK-Uz922eMEArSTLLOkHeGSx9rgD_PfuxGrpNXh1vhwb5u_so0qrx4aoitiKvnC4bWi_QlBAAhZJgkVlw0xBM7nIKxUiLVmb-StjAg1AoFacTwU1uyFcEySL-YlyL4ytZX0J1H7zm9", "width": 1600}], "place_id": "ChIJ9S_YjYjyFUcRULrqxjB65rI", "plus_code": {"compound_code": "8X45+59 Zakopane, Poland", "global_code": "8FXX8X45+59"}, "price_level": 2, "rating": 4.4, "reference": "ChIJ9S_YjYjyFUcRULrqxjB65rI", "types": ["meal_delivery", "bar", "restaurant", "food", "point_of_interest", "establishment"], "user_ratings_total": 3662}, {"business_status": "OPERATIONAL", "formatted_address": "Droga Zubka 4, 34-500 Zakopane, Poland", "geometry": {"location": {"lat": 49.307099, "lng": 19.9348291}, "viewport": {"northeast": {"lat": 49.30852977989272, "lng": 19.93612267989272}, "southwest": {"lat": 49.30583012010728, "lng": 19.93342302010728}}}, "icon": "https://maps.gstatic.com/mapfiles/place_api/icons/v1/png_71/restaurant-71.png", "icon_background_color": "#FF9E67", "icon_mask_base_uri": "https://maps.gstatic.com/mapfiles/place_api/icons/v2/restaurant_pinlet", "name": "Restauracja Po Widoki", "opening_hours": {"open_now": true}, "photos": [{"height": 2000, "html_attributions": ["<a href=\"https://maps.google.com/maps/contrib/112450849788724324873\">A Google User</a>"], "photo_reference": "AXCi2Q7JCWbBsMUg4lkq7wwKKbjEzoG8ZKuCIdtSqEXrhF6-Pv2mVhMqD90LWSS8xAfgPZQ-_R0gmg1VMKgFHoPqaDftqGc0JF3xZyLt1yzvLQFz4FtTjnFlONsG4kVYX7jIDq9a_PSUS6MiOQy2YAoOvAlNwm-QcClpfW2PO0T7z_D7g6gT", "width": 3000}], "place_id": "ChIJkwJyCHztFUcRvNQVTnkkmlM", "plus_code": {"compound_code": "8W4M+RW Zakopane, Poland", "global_code": "8FXX8W4M+RW"}, "price_level": 2, "rating": 4.6, "reference": "ChIJkwJyCHztFUcRvNQVTnkkmlM", "types": ["restaurant", "food", "point_of_interest", "establishment"], "user_ratings_total": 3691}, {"business_status": "OPERATIONAL", "formatted_address": "Droga Oswalda Balzera 21d, 34-500 Zakopane, Poland", "geometry": {"location": {"lat": 49.2847096, "lng": 19.9872628}, "viewport": {"northeast": {"lat": 49.28596077989272, "lng": 19.98857537989272}, "southwest": {"lat": 49.28326112010728, "lng": 19.98587572010728}}}, "icon": "https://maps.gstatic.com/mapfiles/place_api/icons/v1/png_71/restaurant-71.png", "icon_background_color": "#FF9E67", "icon_mask_base_uri": "https://maps.gstatic.com/mapfiles/place_api/icons/v2/restaurant_pinlet", "name": "Nosalowy Dw\u00f3r", "opening_hours": {"open_now": false}, "photos": [{"height": 1333, "html_attributions": ["<a href=\"https://maps.google.com/maps/contrib/113095918521966172972\">Restauracja Regionalna Nosalowy Dw\u00f3r</a>"], "photo_reference": "AXCi2Q54ziieZHXMRmqNSobal8NsX0rTJsKAyJgDvSnYqkjgM8qLs6MZlkecwGMILR70kM1rgzzGkRiGLiD9oQW5DD-WBU1daUzJ4YM9_nI607jqVfp2lqB05KZJD3jox0qgBQakfNK72sYOLrdFtYgd4qU-vocuggsVWg-hLy4n_d4BvWPS", "width": 2000}], "place_id": "ChIJQ4GHzeHyFUcRcTnMbTaaMEE", "plus_code": {"compound_code": "7XMP+VW Zakopane, Poland", "global_code": "8FXX7XMP+VW"}, "price_level": 2, "rating": 4.5, "reference": "ChIJQ4GHzeHyFUcRcTnMbTaaMEE", "types": ["restaurant", "food", "point_of_interest", "establishment"], "user_ratings_total": 1604}], "status": "OK"}